{"type":"FeatureCollection","features":[{"type": "Feature", "geometry": {"type": "Point", "coordinates": [2.35359884799, 48.8614627523]}, "properties": {"city": "PARIS", "station_number": 7, "station_id": "230359", "geo_coordinates": [48.8614627523, 2.35359884799], "address": "24 rue Beaubourg", "address_precision": "Angle impasse Berthaud", "station_name": "Beaubourg", "zip_code": "75003"}},{"type": "Feature", "geometry": {"type": "Point", "coordinates": [2.30603121221, 48.8280622906]}, "properties": {"city": "PARIS", "station_number": 62, "station_id": "230381", "geo_coordinates": [48.8280622906, 2.30603121221], "address": "214 rue Raymond Losserand", "station_name": "Porte de Vanves", "zip_code": "75014"}},{"type": "Feature", "geometry": {"type": "Point", "coordinates": [2.28538691998, 48.8468265356]}, "properties": {"city": "PARIS", "station_number": 63, "station_id": "230382", "geo_coordinates": [48.8468265356, 2.28538691998], "address": "48 rue Linois", "address_precision": "Angle place Charles Michels", "station_name": "Place Charles Michels", "zip_code": "75015"}},{"type": "Feature", "geometry": {"type": "Point", "coordinates": [2.28809997439, 48.8412224935]}, "properties": {"city": "PARIS", "station_number": 66, "station_id": "230383", "geo_coordinates": [48.8412224935, 2.28809997439], "address": "44 avenue F\u00e9lix Faure", "station_name": "F\u00e9lix Faure - Boucicault", "zip_code": "75015"}},{"type": "Feature", "geometry": {"type": "Point", "coordinates": [2.2956597805, 48.8748452784]}, "properties": {"city": "PARIS", "station_number": 82, "station_id": "230390", "geo_coordinates": [48.8748452784, 2.2956597805], "address": "1 avenue de Wagram", "address_precision": "Angle place Charles de Gaulle", "station_name": "Etoile - Wagram", "zip_code": "75017"}},{"type": "Feature", "geometry": {"type": "Point", "coordinates": [2.29757755995, 48.8844463805]}, "properties": {"city": "PARIS", "station_number": 83, "station_id": "230391", "geo_coordinates": [48.8844463805, 2.29757755995], "address": "3 place du Mar\u00e9chal Juin", "address_precision": "Angle rue de Courcelles", "station_name": "Mar\u00e9chal Juin", "zip_code": "75017"}},{"type": "Feature", "geometry": {"type": "Point", "coordinates": [2.3451230675, 48.892551994]}, "properties": {"city": "PARIS", "station_number": 92, "station_id": "230396", "geo_coordinates": [48.892551994, 2.3451230675], "address": "30 rue Hermel", "address_precision": "Angle place Jules Joffrin", "station_name": "Mairie du 18\u00e8me", "zip_code": "75018"}},{"type": "Feature", "geometry": {"type": "Point", "coordinates": [2.34916046262, 48.8874596847]}, "properties": {"city": "PARIS", "station_number": 93, "station_id": "230397", "geo_coordinates": [48.8874596847, 2.34916046262], "address": "1 rue Custine", "address_precision": "Angle place du Ch\u00e2teau Rouge", "station_name": "Ch\u00e2teau Rouge", "zip_code": "75018"}},{"type": "Feature", "geometry": {"type": "Point", "coordinates": [2.37021781504, 48.8993396107]}, "properties": {"city": "PARIS", "station_number": 97, "station_id": "230398", "geo_coordinates": [48.8993396107, 2.37021781504], "address": "3 avenue de la porte d'Aubervilliers", "station_name": "Porte d'Aubervilliers", "zip_code": "75018"}},{"type": "Feature", "geometry": {"type": "Point", "coordinates": [2.36947014928, 48.884937587]}, "properties": {"city": "PARIS", "station_number": 104, "station_id": "230400", "geo_coordinates": [48.884937587, 2.36947014928], "address": "13 avenue de Flandre", "station_name": "Flandre - Stalingrad", "zip_code": "75019"}},{"type": "Feature", "geometry": {"type": "Point", "coordinates": [2.38903485239, 48.8596399111]}, "properties": {"city": "PARIS", "station_number": 113, "station_id": "230405", "geo_coordinates": [48.8596399111, 2.38903485239], "address": "30 boulevard de Menilmontant", "address_precision": "Angle place Auguste M\u00e9thivier", "station_name": "P\u00e8re Lachaise - M\u00e9nilmontant", "zip_code": "75020"}},{"type": "Feature", "geometry": {"type": "Point", "coordinates": [2.33527332544, 48.8633843396]}, "properties": {"city": "PARIS", "station_number": 2, "station_id": "230407", "geo_coordinates": [48.8633843396, 2.33527332544], "address": "1 place Andr\u00e9 Malraux", "address_precision": "Face 161 rue Saint Honor\u00e9", "station_name": "Palais Royal", "zip_code": "75001"}},{"type": "Feature", "geometry": {"type": "Point", "coordinates": [2.32716970146, 48.8506734076]}, "properties": {"city": "PARIS", "station_number": 19, "station_id": "230416", "geo_coordinates": [48.8506734076, 2.32716970146], "address": "1 place Alphonse Deville", "address_precision": "Angle boulevard Raspail", "station_name": "S\u00e8vres Babylone", "zip_code": "75015"}},{"type": "Feature", "geometry": {"type": "Point", "coordinates": [2.31091216207, 48.8694044826]}, "properties": {"city": "PARIS", "station_number": 29, "station_id": "230420", "geo_coordinates": [48.8694044826, 2.31091216207], "address": "3 avenue Matignon", "address_precision": "Angle rond point des Champs Elys\u00e9es", "station_name": "Rd Pt des Champs Elys\u00e9es", "zip_code": "75008"}},{"type": "Feature", "geometry": {"type": "Point", "coordinates": [2.29841373861, 48.8777317119]}, "properties": {"city": "PARIS", "station_number": 30, "station_id": "230421", "geo_coordinates": [48.8777317119, 2.29841373861], "address": "272 rue du faubourg Saint Honor\u00e9", "station_name": "Place des Ternes", "zip_code": "75008"}},{"type": "Feature", "geometry": {"type": "Point", "coordinates": [2.32752844691, 48.8833140296]}, "properties": {"city": "PARIS", "station_number": 33, "station_id": "230422", "geo_coordinates": [48.8833140296, 2.32752844691], "address": "95 rue de Clichy", "address_precision": "Angle place de Clichy", "station_name": "Place de Clichy", "zip_code": "75009"}},{"type": "Feature", "geometry": {"type": "Point", "coordinates": [2.28499598801, 48.8586830253]}, "properties": {"city": "PARIS", "station_number": 80, "station_id": "230443", "geo_coordinates": [48.8586830253, 2.28499598801], "address": "10 boulevard Delessert", "address_precision": "Angle rue Benjamin Franklin", "station_name": "Passy - Costa Rica", "zip_code": "75016"}},{"type": "Feature", "geometry": {"type": "Point", "coordinates": [2.28439584374, 48.8773012933]}, "properties": {"city": "PARIS", "station_number": 84, "station_id": "230445", "geo_coordinates": [48.8773012933, 2.28439584374], "address": "78 avenue de la Grande Arm\u00e9e", "station_name": "Porte Maillot", "zip_code": "75017"}},{"type": "Feature", "geometry": {"type": "Point", "coordinates": [2.34596863389, 48.8955202845]}, "properties": {"city": "PARIS", "station_number": 96, "station_id": "230451", "geo_coordinates": [48.8955202845, 2.34596863389], "address": "119 rue du Mont Cenis", "station_name": "Place du Tertre", "zip_code": "75018"}},{"type": "Feature", "geometry": {"type": "Point", "coordinates": [2.34403945506, 48.8982732792]}, "properties": {"city": "PARIS", "station_number": 98, "station_id": "230452", "geo_coordinates": [48.8982732792, 2.34403945506], "address": "1 avenue de la Porte de Clignancourt", "station_name": "Porte de Clignancourt", "zip_code": "75018"}},{"type": "Feature", "geometry": {"type": "Point", "coordinates": [2.38145492971, 48.8941730472]}, "properties": {"city": "PARIS", "station_number": 102, "station_id": "230454", "geo_coordinates": [48.8941730472, 2.38145492971], "address": "154 avenue de Flandre", "address_precision": "Angle rue de l'Argone", "station_name": "Flandres - Argone", "zip_code": "75019"}},{"type": "Feature", "geometry": {"type": "Point", "coordinates": [2.40722626448, 48.8354478959]}, "properties": {"city": "PARIS", "station_number": 50, "station_id": "230463", "geo_coordinates": [48.8354478959, 2.40722626448], "address": "1 place Edouard Renard", "station_name": "Porte Dor\u00e9e", "zip_code": "75012"}},{"type": "Feature", "geometry": {"type": "Point", "coordinates": [2.44113475084, 48.844501413]}, "properties": {"city": "PARIS", "station_number": 47, "station_id": "230465", "geo_coordinates": [48.844501413, 2.44113475084], "address": "7 avenue de Nogent", "address_precision": "Face \u00e0 la gare routi\u00e8re de bus", "station_name": "Ch\u00e2teau de Vincennes", "zip_code": "75012"}},{"type": "Feature", "geometry": {"type": "Point", "coordinates": [2.27861434221, 48.8515801462]}, "properties": {"city": "PARIS", "station_number": 75, "station_id": "230467", "geo_coordinates": [48.8515801462, 2.27861434221], "address": "1 avenue de Versailles", "address_precision": "Au pied de Radio France", "station_name": "Maison de la Radio", "zip_code": "75016"}},{"type": "Feature", "geometry": {"type": "Point", "coordinates": [2.32981905341, 48.8678774604]}, "properties": {"city": "PARIS", "station_number": 4, "station_id": "230356", "geo_coordinates": [48.8678774604, 2.32981905341], "address": "23 place Vend\u00f4me", "address_precision": "C\u00f4t\u00e9 rue de la Paix", "station_name": "Place Vend\u00f4me", "zip_code": "75001"}},{"type": "Feature", "geometry": {"type": "Point", "coordinates": [2.29271605611, 48.8584814108]}, "properties": {"city": "PARIS", "station_number": 20, "station_id": "230364", "geo_coordinates": [48.8584814108, 2.29271605611], "address": "69 quai Branly", "address_precision": "Au pied de la Tour Eiffel", "station_name": "Tour Eiffel", "zip_code": "75007"}},{"type": "Feature", "geometry": {"type": "Point", "coordinates": [2.39770576358, 48.8483881771]}, "properties": {"city": "PARIS", "station_number": 38, "station_id": "230371", "geo_coordinates": [48.8483881771, 2.39770576358], "address": "3 avenue du Tr\u00f4ne", "address_precision": "Angle place de la Nation", "station_name": "Nation", "zip_code": "75011"}},{"type": "Feature", "geometry": {"type": "Point", "coordinates": [2.38444022834, 48.8502498161]}, "properties": {"city": "PARIS", "station_number": 40, "station_id": "230372", "geo_coordinates": [48.8502498161, 2.38444022834], "address": "35 rue Faidherbe", "station_name": "H\u00f4pital Saint Antoine", "zip_code": "75011"}},{"type": "Feature", "geometry": {"type": "Point", "coordinates": [2.36982822418, 48.8530379533]}, "properties": {"city": "PARIS", "station_number": 44, "station_id": "230373", "geo_coordinates": [48.8530379533, 2.36982822418], "address": "8 place de la Bastille", "address_precision": "Au pied de l'Op\u00e9ra Bastille", "station_name": "Bastille", "zip_code": "75012"}},{"type": "Feature", "geometry": {"type": "Point", "coordinates": [2.39551775157, 48.8399320496]}, "properties": {"city": "PARIS", "station_number": 45, "station_id": "230374", "geo_coordinates": [48.8399320496, 2.39551775157], "address": "3 place Felix Ebou\u00e9", "station_name": "Daumesnil - F\u00e9lix Ebou\u00e9", "zip_code": "75012"}},{"type": "Feature", "geometry": {"type": "Point", "coordinates": [2.37894505262, 48.8400547403]}, "properties": {"city": "PARIS", "station_number": 46, "station_id": "230375", "geo_coordinates": [48.8400547403, 2.37894505262], "address": "1 quai de Bercy", "address_precision": "Angle boulevard de Bercy, au pied du palais omnisport", "station_name": "Bercy - Palais Omnisport", "zip_code": "75012"}},{"type": "Feature", "geometry": {"type": "Point", "coordinates": [2.38151863217, 48.8827055127]}, "properties": {"city": "PARIS", "station_number": 105, "station_id": "230401", "geo_coordinates": [48.8827055127, 2.38151863217], "address": "1 avenue de Laumi\u00e8re", "station_name": "Mairie du 19 \u00e8me", "zip_code": "75019"}},{"type": "Feature", "geometry": {"type": "Point", "coordinates": [2.40146756172, 48.8680106687]}, "properties": {"city": "PARIS", "station_number": 112, "station_id": "230404", "geo_coordinates": [48.8680106687, 2.40146756172], "address": "2 place Paul Signac", "address_precision": "Angle avenue Gambetta", "station_name": "Pelleport - Gambetta", "zip_code": "75020"}},{"type": "Feature", "geometry": {"type": "Point", "coordinates": [2.40598976612, 48.8529108822]}, "properties": {"city": "PARIS", "station_number": 116, "station_id": "230406", "geo_coordinates": [48.8529108822, 2.40598976612], "address": "67 rue des Pyr\u00e9n\u00e9es", "address_precision": "Angle rue d'Avron", "station_name": "Pyr\u00e9n\u00e9es - Avron", "zip_code": "75020"}},{"type": "Feature", "geometry": {"type": "Point", "coordinates": [2.36033253372, 48.8553944457]}, "properties": {"city": "PARIS", "station_number": 8, "station_id": "230410", "geo_coordinates": [48.8553944457, 2.36033253372], "address": "10 rue de Rivoli", "address_precision": "Angle rue Saint Antoine", "station_name": "Saint Paul", "zip_code": "75004"}},{"type": "Feature", "geometry": {"type": "Point", "coordinates": [2.34894454479, 48.849991247]}, "properties": {"city": "PARIS", "station_number": 11, "station_id": "230412", "geo_coordinates": [48.849991247, 2.34894454479], "address": "60 boulevard Saint Germain", "address_precision": "Angle rue Lagrange", "station_name": "Maubert Mutualit\u00e9", "zip_code": "75005"}},{"type": "Feature", "geometry": {"type": "Point", "coordinates": [2.35125929117, 48.877872391]}, "properties": {"city": "PARIS", "station_number": 37, "station_id": "230424", "geo_coordinates": [48.877872391, 2.35125929117], "address": "5 place Franz Liszt", "station_name": "Place Franz Liszt", "zip_code": "75010"}},{"type": "Feature", "geometry": {"type": "Point", "coordinates": [2.37317360938, 48.8620053567]}, "properties": {"city": "PARIS", "station_number": 43, "station_id": "230427", "geo_coordinates": [48.8620053567, 2.37317360938], "address": "55 boulevard Voltaire", "address_precision": "Angle rue Saint S\u00e9bastien", "station_name": "Saint Ambroise", "zip_code": "75011"}},{"type": "Feature", "geometry": {"type": "Point", "coordinates": [2.36511826515, 48.8197078113]}, "properties": {"city": "PARIS", "station_number": 57, "station_id": "230433", "geo_coordinates": [48.8197078113, 2.36511826515], "address": "36 avenue de la Porte de Choisy", "address_precision": "Angle boulevard Massena", "station_name": "Porte de Choisy", "zip_code": "75013"}},{"type": "Feature", "geometry": {"type": "Point", "coordinates": [2.34168916941, 48.8262978297]}, "properties": {"city": "PARIS", "station_number": 60, "station_id": "230434", "geo_coordinates": [48.8262978297, 2.34168916941], "address": "1 rue de l'Amiral Mouchez", "address_precision": "Angle place Coluche", "station_name": "Place Coluche Amiral Mouchez", "zip_code": "75014"}},{"type": "Feature", "geometry": {"type": "Point", "coordinates": [2.31375798583, 48.8316479675]}, "properties": {"city": "PARIS", "station_number": 61, "station_id": "230435", "geo_coordinates": [48.8316479675, 2.31375798583], "address": "126 rue Raymond Losserand", "address_precision": "Angle rue d'Al\u00e9sia", "station_name": "Plaisance", "zip_code": "75014"}},{"type": "Feature", "geometry": {"type": "Point", "coordinates": [2.28903740644, 48.833232152]}, "properties": {"city": "PARIS", "station_number": 64, "station_id": "230436", "geo_coordinates": [48.833232152, 2.28903740644], "address": "378 rue de Vaugirard", "station_name": "Porte de Versailles", "zip_code": "75015"}},{"type": "Feature", "geometry": {"type": "Point", "coordinates": [2.31346160173, 48.89427753]}, "properties": {"city": "PARIS", "station_number": 89, "station_id": "230447", "geo_coordinates": [48.89427753, 2.31346160173], "address": "1 avenue de la porte de Clichy", "address_precision": "Angle boulevard Berthier", "station_name": "Porte de Clichy", "zip_code": "75017"}},{"type": "Feature", "geometry": {"type": "Point", "coordinates": [2.32738427818, 48.8926511897]}, "properties": {"city": "PARIS", "station_number": 94, "station_id": "230449", "geo_coordinates": [48.8926511897, 2.32738427818], "address": "86 avenue de Saint Ouen", "station_name": "Guy M\u00f4quet", "zip_code": "75018"}},{"type": "Feature", "geometry": {"type": "Point", "coordinates": [2.37089574337, 48.8775416402]}, "properties": {"city": "PARIS", "station_number": 106, "station_id": "230455", "geo_coordinates": [48.8775416402, 2.37089574337], "address": "120 boulevard de la Villette", "address_precision": "Angle place du Colonel Fabien", "station_name": "Place du Colonel Fabien", "zip_code": "75019"}},{"type": "Feature", "geometry": {"type": "Point", "coordinates": [2.31277227402, 48.8537950784]}, "properties": {"city": "PARIS", "station_number": 26, "station_id": "230462", "geo_coordinates": [48.8537950784, 2.31277227402], "address": "2 avenue de Tourville", "address_precision": "Angle place Vauban", "station_name": "Place Vauban", "zip_code": "75007"}},{"type": "Feature", "geometry": {"type": "Point", "coordinates": [2.37004548311, 48.8730745266]}, "properties": {"city": "PARIS", "station_number": 36, "station_id": "230464", "geo_coordinates": [48.8730745266, 2.37004548311], "address": "1 avenue Claude Vellefaux", "address_precision": "H\u00f4pital St Louis", "station_name": "H\u00f4pital Saint Louis", "zip_code": "75010"}},{"type": "Feature", "geometry": {"type": "Point", "coordinates": [2.31174834073, 48.8451805594]}, "properties": {"city": "PARIS", "station_number": 71, "station_id": "230466", "geo_coordinates": [48.8451805594, 2.31174834073], "address": "1 place Henri Queuille", "address_precision": "Angle boulevard Pasteur", "station_name": "S\u00e8vres Lecourbe", "zip_code": "75015"}},{"type": "Feature", "geometry": {"type": "Point", "coordinates": [2.3014010489, 48.8647081451]}, "properties": {"city": "PARIS", "station_number": 28, "station_id": "230470", "geo_coordinates": [48.8647081451, 2.3014010489], "address": "1 avenue George V", "address_precision": "Angle place de l' Alma", "station_name": "Place de l' Alma", "zip_code": "75008"}},{"type": "Feature", "geometry": {"type": "Point", "coordinates": [2.34725475311, 48.8578187684]}, "properties": {"city": "PARIS", "station_number": 1, "station_id": "230355", "geo_coordinates": [48.8578187684, 2.34725475311], "address": "1 place du Ch\u00e2telet", "address_precision": "Face 12 avenue Victoria", "station_name": "Ch\u00e2telet", "zip_code": "75001"}},{"type": "Feature", "geometry": {"type": "Point", "coordinates": [2.33655408025, 48.8401372695]}, "properties": {"city": "PARIS", "station_number": 17, "station_id": "230362", "geo_coordinates": [48.8401372695, 2.33655408025], "address": "20 avenue de l'Observatoire", "address_precision": "Angle boulevard du Montparnasse", "station_name": "Port Royal - Observatoire", "zip_code": "75006"}},{"type": "Feature", "geometry": {"type": "Point", "coordinates": [2.32283525169, 48.8706654979]}, "properties": {"city": "PARIS", "station_number": 27, "station_id": "230367", "geo_coordinates": [48.8706654979, 2.32283525169], "address": "4 boulevard Malesherbes", "address_precision": "Angle place de la Madeleine", "station_name": "Madeleine", "zip_code": "75008"}},{"type": "Feature", "geometry": {"type": "Point", "coordinates": [2.32002697885, 48.8746402007]}, "properties": {"city": "PARIS", "station_number": 32, "station_id": "230369", "geo_coordinates": [48.8746402007, 2.32002697885], "address": "44 boulevard Malesherbes", "address_precision": "Angle place Saint Augustin", "station_name": "Saint Augustin", "zip_code": "75008"}},{"type": "Feature", "geometry": {"type": "Point", "coordinates": [2.41114497185, 48.8464783698]}, "properties": {"city": "PARIS", "station_number": 51, "station_id": "230376", "geo_coordinates": [48.8464783698, 2.41114497185], "address": "86 boulevard Soult", "station_name": "Porte de Vincennes", "zip_code": "75012"}},{"type": "Feature", "geometry": {"type": "Point", "coordinates": [2.34390467405, 48.8309072812]}, "properties": {"city": "PARIS", "station_number": 54, "station_id": "230377", "geo_coordinates": [48.8309072812, 2.34390467405], "address": "125 boulevard Auguste Blanqui", "station_name": "Glaci\u00e8re", "zip_code": "75013"}},{"type": "Feature", "geometry": {"type": "Point", "coordinates": [2.29823671281, 48.8493770298]}, "properties": {"city": "PARIS", "station_number": 68, "station_id": "230385", "geo_coordinates": [48.8493770298, 2.29823671281], "address": "66 avenue de la Motte Picquet", "address_precision": "Angle rue de Pondichery", "station_name": "La Motte Piquet Grenelle", "zip_code": "75015"}},{"type": "Feature", "geometry": {"type": "Point", "coordinates": [2.26805582643, 48.852383622]}, "properties": {"city": "PARIS", "station_number": 76, "station_id": "230387", "geo_coordinates": [48.852383622, 2.26805582643], "address": "80 avenue Mozart", "address_precision": "Angle rue de l'Yvette", "station_name": "Mozart - Jasmin", "zip_code": "75016"}},{"type": "Feature", "geometry": {"type": "Point", "coordinates": [2.27265045047, 48.8470586447]}, "properties": {"city": "PARIS", "station_number": 77, "station_id": "230388", "geo_coordinates": [48.8470586447, 2.27265045047], "address": "3 rue Mirabeau", "address_precision": "Angle place de Barcelone", "station_name": "Place de Barcelone", "zip_code": "75016"}},{"type": "Feature", "geometry": {"type": "Point", "coordinates": [2.31510445476, 48.8815484283]}, "properties": {"city": "PARIS", "station_number": 91, "station_id": "230395", "geo_coordinates": [48.8815484283, 2.31510445476], "address": "1 avenue de Villiers", "station_name": "Villiers - Courcelles", "zip_code": "75017"}},{"type": "Feature", "geometry": {"type": "Point", "coordinates": [2.35276937485, 48.8696364871]}, "properties": {"city": "PARIS", "station_number": 6, "station_id": "230409", "geo_coordinates": [48.8696364871, 2.35276937485], "address": "19 boulevard Saint Denis", "address_precision": "Angle porte Saint Denis", "station_name": "Strasbourg Saint Denis", "zip_code": "75002"}},{"type": "Feature", "geometry": {"type": "Point", "coordinates": [2.34434790909, 48.8537513985]}, "properties": {"city": "PARIS", "station_number": 9, "station_id": "230411", "geo_coordinates": [48.8537513985, 2.34434790909], "address": "29 quai Saint Michel", "station_name": "Place Saint Michel", "zip_code": "75005"}},{"type": "Feature", "geometry": {"type": "Point", "coordinates": [2.35491849482, 48.8499705085]}, "properties": {"city": "PARIS", "station_number": 14, "station_id": "230413", "geo_coordinates": [48.8499705085, 2.35491849482], "address": "15 quai de la Tournelle", "station_name": "Tournelle", "zip_code": "75005"}},{"type": "Feature", "geometry": {"type": "Point", "coordinates": [2.33576014638, 48.8530878109]}, "properties": {"city": "PARIS", "station_number": 16, "station_id": "230415", "geo_coordinates": [48.8530878109, 2.33576014638], "address": "2 rue du Four", "station_name": "Mabillon", "zip_code": "75006"}},{"type": "Feature", "geometry": {"type": "Point", "coordinates": [2.38020636141, 48.8579850916]}, "properties": {"city": "PARIS", "station_number": 41, "station_id": "230425", "geo_coordinates": [48.8579850916, 2.38020636141], "address": "12 place L\u00e9on Blum", "address_precision": "Avenue Parmentier", "station_name": "Mairie 11\u00e8me- L\u00e9on Blum", "zip_code": "75011"}},{"type": "Feature", "geometry": {"type": "Point", "coordinates": [2.3861092329, 48.8320492048]}, "properties": {"city": "PARIS", "station_number": 48, "station_id": "230428", "geo_coordinates": [48.8320492048, 2.3861092329], "address": "12 rue des Pirogues de Bercy", "address_precision": "Angle rue de Libourne", "station_name": "Cour Saint Emilion", "zip_code": "75012"}},{"type": "Feature", "geometry": {"type": "Point", "coordinates": [2.38795995712, 48.8413063447]}, "properties": {"city": "PARIS", "station_number": 49, "station_id": "230429", "geo_coordinates": [48.8413063447, 2.38795995712], "address": "130 avenue Daumesnil", "station_name": "Mairie du 12\u00e8me", "zip_code": "75012"}},{"type": "Feature", "geometry": {"type": "Point", "coordinates": [2.3599845171, 48.819204485]}, "properties": {"city": "PARIS", "station_number": 56, "station_id": "230432", "geo_coordinates": [48.819204485, 2.3599845171], "address": "166 boulevard Mass\u00e9na", "station_name": "Porte d'Italie", "zip_code": "75013"}},{"type": "Feature", "geometry": {"type": "Point", "coordinates": [2.25975036621, 48.8477271661]}, "properties": {"city": "PARIS", "station_number": 79, "station_id": "230442", "geo_coordinates": [48.8477271661, 2.25975036621], "address": "144 boulevard Exelmans", "address_precision": "Angle avenue d'Auteuil", "station_name": "Porte d'Auteuil", "zip_code": "75016"}},{"type": "Feature", "geometry": {"type": "Point", "coordinates": [2.30338320136, 48.8792945944]}, "properties": {"city": "PARIS", "station_number": 85, "station_id": "230446", "geo_coordinates": [48.8792945944, 2.30338320136], "address": "94 boulevard de Courcelles", "address_precision": "Angle rue de Chazelles", "station_name": "Courcelles - Chazelles", "zip_code": "75017"}},{"type": "Feature", "geometry": {"type": "Point", "coordinates": [2.32879042625, 48.8975935307]}, "properties": {"city": "PARIS", "station_number": 90, "station_id": "230448", "geo_coordinates": [48.8975935307, 2.32879042625], "address": "1 avenue de la porte de Saint Ouen", "station_name": "Porte de Saint Ouen", "zip_code": "75017"}},{"type": "Feature", "geometry": {"type": "Point", "coordinates": [2.40710556507, 48.8774058113]}, "properties": {"city": "PARIS", "station_number": 101, "station_id": "230453", "geo_coordinates": [48.8774058113, 2.40710556507], "address": "1 avenue de la Porte des lilas", "address_precision": "Angle boulevard Serrurier", "station_name": "Porte des Lilas", "zip_code": "75019"}},{"type": "Feature", "geometry": {"type": "Point", "coordinates": [2.38579943776, 48.8739473408]}, "properties": {"city": "PARIS", "station_number": 110, "station_id": "230457", "geo_coordinates": [48.8739473408, 2.38579943776], "address": "360 rue des Pyr\u00e9n\u00e9es", "station_name": "Belleville - Pyr\u00e9n\u00e9es", "zip_code": "75020"}},{"type": "Feature", "geometry": {"type": "Point", "coordinates": [2.40916550159, 48.8647703423]}, "properties": {"city": "PARIS", "station_number": 114, "station_id": "230459", "geo_coordinates": [48.8647703423, 2.40916550159], "address": "6 place de la Porte de Bagnolet", "address_precision": "Face au Sqaure S\u00e9verine", "station_name": "Porte de Bagnolet", "zip_code": "75020"}},{"type": "Feature", "geometry": {"type": "Point", "coordinates": [2.41106182337, 48.8536741863]}, "properties": {"city": "PARIS", "station_number": 115, "station_id": "230460", "geo_coordinates": [48.8536741863, 2.41106182337], "address": "1 avenue de la Porte de Montreuil", "address_precision": "Angle boulevard Davout", "station_name": "Porte de Montreuil", "zip_code": "75020"}},{"type": "Feature", "geometry": {"type": "Point", "coordinates": [2.35916107893, 48.8981436781]}, "properties": {"city": "PARIS", "station_number": 99, "station_id": "230468", "geo_coordinates": [48.8981436781, 2.35916107893], "address": "188 rue de la Chapelle", "address_precision": "Angle boulevard Ney", "station_name": "Porte de la Chapelle", "zip_code": "75018"}},{"type": "Feature", "geometry": {"type": "Point", "coordinates": [2.34684973955, 48.8644386227]}, "properties": {"city": "PARIS", "station_number": 117, "station_id": "230472", "geo_coordinates": [48.8644386227, 2.34684973955], "address": "28 Rue \u00c9tienne Marcel", "station_name": "Etienne Marcel", "zip_code": "75002"}},{"type": "Feature", "geometry": {"type": "Point", "coordinates": [2.33255758882, 48.870701224]}, "properties": {"city": "PARIS", "station_number": 5, "station_id": "230357", "geo_coordinates": [48.870701224, 2.33255758882], "address": "2 place de l'Op\u00e9ra", "address_precision": "Angle boulevard des Capucines", "station_name": "Op\u00e9ra", "zip_code": "75002"}},{"type": "Feature", "geometry": {"type": "Point", "coordinates": [2.35222488642, 48.8432326776]}, "properties": {"city": "PARIS", "station_number": 13, "station_id": "230361", "geo_coordinates": [48.8432326776, 2.35222488642], "address": "75 bis rue Monge", "station_name": "Place Monge", "zip_code": "75005"}},{"type": "Feature", "geometry": {"type": "Point", "coordinates": [2.32587955892, 48.8561215342]}, "properties": {"city": "PARIS", "station_number": 22, "station_id": "230365", "geo_coordinates": [48.8561215342, 2.32587955892], "address": "50 rue du Bac", "address_precision": "Angle boulevard Saint Germain", "station_name": "Bac - Saint Germain", "zip_code": "75007"}},{"type": "Feature", "geometry": {"type": "Point", "coordinates": [2.31000356376, 48.858057003]}, "properties": {"city": "PARIS", "station_number": 25, "station_id": "230366", "geo_coordinates": [48.858057003, 2.31000356376], "address": "1 place Salvador Allende", "station_name": "La Tour Maubourg - Invalides", "zip_code": "75007"}},{"type": "Feature", "geometry": {"type": "Point", "coordinates": [2.31135740876, 48.8771447364]}, "properties": {"city": "PARIS", "station_number": 31, "station_id": "230368", "geo_coordinates": [48.8771447364, 2.31135740876], "address": "34 avenue de Messine", "address_precision": "Angle place Rio de Janeiro", "station_name": "Place Rio de Janeiro", "zip_code": "75008"}},{"type": "Feature", "geometry": {"type": "Point", "coordinates": [2.33933351934, 48.8766433101]}, "properties": {"city": "PARIS", "station_number": 35, "station_id": "230370", "geo_coordinates": [48.8766433101, 2.33933351934], "address": "1 rue Flechier", "station_name": "Notre Dame de Lorette", "zip_code": "75009"}},{"type": "Feature", "geometry": {"type": "Point", "coordinates": [2.33218207955, 48.8348335002]}, "properties": {"city": "PARIS", "station_number": 58, "station_id": "230379", "geo_coordinates": [48.8348335002, 2.33218207955], "address": "2 place Denfert Rochereau", "address_precision": "Face 297 boulevard Raspail, square Lamark", "station_name": "Denfert  Rochereau", "zip_code": "75014"}},{"type": "Feature", "geometry": {"type": "Point", "coordinates": [2.27406263351, 48.8581262673]}, "properties": {"city": "PARIS", "station_number": 72, "station_id": "230386", "geo_coordinates": [48.8581262673, 2.27406263351], "address": "11 chauss\u00e9e de la Muette", "address_precision": "Angle avenue Mozart", "station_name": "La Muette", "zip_code": "75016"}},{"type": "Feature", "geometry": {"type": "Point", "coordinates": [2.30358101428, 48.8898767225]}, "properties": {"city": "PARIS", "station_number": 87, "station_id": "230393", "geo_coordinates": [48.8898767225, 2.30358101428], "address": "100 boulevard Berthier", "address_precision": "Sur passage souterrain", "station_name": "Porte d' Asni\u00e8res", "zip_code": "75017"}},{"type": "Feature", "geometry": {"type": "Point", "coordinates": [2.32429102063, 48.8662815797]}, "properties": {"city": "PARIS", "station_number": 3, "station_id": "230408", "geo_coordinates": [48.8662815797, 2.32429102063], "address": "252 rue de Rivoli", "station_name": "Concorde - Rivoli", "zip_code": "75001"}},{"type": "Feature", "geometry": {"type": "Point", "coordinates": [2.33272321522, 48.8537968433]}, "properties": {"city": "PARIS", "station_number": 15, "station_id": "230414", "geo_coordinates": [48.8537968433, 2.33272321522], "address": "151 boulevard Saint Germain", "address_precision": "Brasserie Lipp", "station_name": "Saint Germain des Pr\u00e9s", "zip_code": "75006"}},{"type": "Feature", "geometry": {"type": "Point", "coordinates": [2.30195224285, 48.8618624273]}, "properties": {"city": "PARIS", "station_number": 21, "station_id": "230417", "geo_coordinates": [48.8618624273, 2.30195224285], "address": "2 avenue Bosquet", "address_precision": "Angle place de la R\u00e9sistance", "station_name": "Alma - Branly", "zip_code": "75007"}},{"type": "Feature", "geometry": {"type": "Point", "coordinates": [2.30635844171, 48.8541489291]}, "properties": {"city": "PARIS", "station_number": 23, "station_id": "230418", "geo_coordinates": [48.8541489291, 2.30635844171], "address": "28 avenue de Tourville", "address_precision": "Angle place de l'Ecole Militaire", "station_name": "Ecole Militaire", "zip_code": "75007"}},{"type": "Feature", "geometry": {"type": "Point", "coordinates": [2.31509774923, 48.8621196117]}, "properties": {"city": "PARIS", "station_number": 24, "station_id": "230419", "geo_coordinates": [48.8621196117, 2.31509774923], "address": "4 rue Robert Esnault Pelterie", "address_precision": "A cot\u00e9 de l'A\u00e9rorare de bus des Invalides", "station_name": "Gare des Invalides", "zip_code": "75007"}},{"type": "Feature", "geometry": {"type": "Point", "coordinates": [2.3912845552, 48.855821082]}, "properties": {"city": "PARIS", "station_number": 42, "station_id": "230426", "geo_coordinates": [48.855821082, 2.3912845552], "address": "97 avenue Philippe Auguste", "address_precision": "Angle rue de Charonne", "station_name": "Philippe Auguste", "zip_code": "75011"}},{"type": "Feature", "geometry": {"type": "Point", "coordinates": [2.35672697425, 48.8312670319]}, "properties": {"city": "PARIS", "station_number": 52, "station_id": "230430", "geo_coordinates": [48.8312670319, 2.35672697425], "address": "213 boulevard Vincent Auriol", "address_precision": "Angle place d'Italie", "station_name": "Place d'Italie", "zip_code": "75013"}},{"type": "Feature", "geometry": {"type": "Point", "coordinates": [2.30200655758, 48.8398698215]}, "properties": {"city": "PARIS", "station_number": 69, "station_id": "230438", "geo_coordinates": [48.8398698215, 2.30200655758], "address": "252 rue de Vaugirard", "address_precision": "Angle rue du G\u00e9n\u00e9ral Beuret", "station_name": "Mairie du 15\u00e8me", "zip_code": "75015"}},{"type": "Feature", "geometry": {"type": "Point", "coordinates": [2.3740580678, 48.8886999633]}, "properties": {"city": "PARIS", "station_number": 103, "station_id": "230469", "geo_coordinates": [48.8886999633, 2.3740580678], "address": "69 avenue de Flandre", "station_name": "Flandre - Riquet", "zip_code": "75019"}},{"type": "Feature", "geometry": {"type": "Point", "coordinates": [2.35187217593, 48.8368655674]}, "properties": {"city": "PARIS", "station_number": 10, "station_id": "230471", "geo_coordinates": [48.8368655674, 2.35187217593], "address": "92 boulevard Saint Marcel", "address_precision": "Angle avenue des Gobelins", "station_name": "Gobelins", "zip_code": "75005"}},{"type": "Feature", "geometry": {"type": "Point", "coordinates": [2.37708359957, 48.8304901437]}, "properties": {"city": "PARIS", "station_number": 118, "station_id": "230473", "geo_coordinates": [48.8304901437, 2.37708359957], "address": "110 Avenue de France", "station_name": "Biblioth\u00e8que Francois Mitterand", "zip_code": "75013"}},{"type": "Feature", "geometry": {"type": "Point", "coordinates": [2.35376447439, 48.8567466984]}, "properties": {"city": "PARIS", "station_number": 119, "station_id": "230474", "geo_coordinates": [48.8567466984, 2.35376447439], "address": "4 Rue de Lobau", "station_name": "H\u00f4tel de Ville", "zip_code": "75004"}},{"type": "Feature", "geometry": {"type": "Point", "coordinates": [2.34084360301, 48.8473565019]}, "properties": {"city": "PARIS", "station_number": 12, "station_id": "230360", "geo_coordinates": [48.8473565019, 2.34084360301], "address": "26 rue Soufflot", "address_precision": "Angle boulevard Saint Michel", "station_name": "Panth\u00e9on", "zip_code": "75005"}},{"type": "Feature", "geometry": {"type": "Point", "coordinates": [2.32368953526, 48.843522614]}, "properties": {"city": "PARIS", "station_number": 18, "station_id": "230363", "geo_coordinates": [48.843522614, 2.32368953526], "address": "1 place du dix huit Juin 1940", "address_precision": "Angle boulevard du Montparnasse, au pied de la Tour Montparnasse", "station_name": "Rennes - Montparnasse", "zip_code": "75006"}},{"type": "Feature", "geometry": {"type": "Point", "coordinates": [2.37093195319, 48.8279351561]}, "properties": {"city": "PARIS", "station_number": 55, "station_id": "230378", "geo_coordinates": [48.8279351561, 2.37093195319], "address": "119 rue de Patay", "address_precision": "Angle rue de Tolbiac", "station_name": "Patay - Tolbiac", "zip_code": "75013"}},{"type": "Feature", "geometry": {"type": "Point", "coordinates": [2.32571393251, 48.822611111]}, "properties": {"city": "PARIS", "station_number": 59, "station_id": "230380", "geo_coordinates": [48.822611111, 2.32571393251], "address": "1 place du vingt cinq Ao\u00fbt 1944", "station_name": "Porte d'Orl\u00e9ans", "zip_code": "75014"}},{"type": "Feature", "geometry": {"type": "Point", "coordinates": [2.27505974472, 48.8393411]}, "properties": {"city": "PARIS", "station_number": 67, "station_id": "230384", "geo_coordinates": [48.8393411, 2.27505974472], "address": "32 rue Leblanc", "address_precision": "H\u00f4pital Georges Pompidou", "station_name": "H\u00f4pital Georges Pompidou", "zip_code": "75015"}},{"type": "Feature", "geometry": {"type": "Point", "coordinates": [2.28490680456, 48.869568562]}, "properties": {"city": "PARIS", "station_number": 78, "station_id": "230389", "geo_coordinates": [48.869568562, 2.28490680456], "address": "12 place Victor Hugo", "address_precision": "Angle avenue Victor Hugo", "station_name": "Place Victor Hugo", "zip_code": "75016"}},{"type": "Feature", "geometry": {"type": "Point", "coordinates": [2.31437556446, 48.8873058051]}, "properties": {"city": "PARIS", "station_number": 86, "station_id": "230392", "geo_coordinates": [48.8873058051, 2.31437556446], "address": "167 rue de Rome", "address_precision": "Angle rue Cardinet, gare SNCF", "station_name": "Pont Cardinet", "zip_code": "75017"}},{"type": "Feature", "geometry": {"type": "Point", "coordinates": [2.29148894548, 48.885453481]}, "properties": {"city": "PARIS", "station_number": 88, "station_id": "230394", "geo_coordinates": [48.885453481, 2.29148894548], "address": "1 boulevard Gouvion Saint Cyr", "address_precision": "Angle avenue de la porte de Champerret", "station_name": "Porte de Champerret", "zip_code": "75017"}},{"type": "Feature", "geometry": {"type": "Point", "coordinates": [2.3896484077, 48.8797448401]}, "properties": {"city": "PARIS", "station_number": 100, "station_id": "230399", "geo_coordinates": [48.8797448401, 2.3896484077], "address": "1 rue du G\u00e9n\u00e9ral Brunet", "address_precision": "Angle rue de Crim\u00e9e", "station_name": "Buttes Chaumont - Botzaris", "zip_code": "75019"}},{"type": "Feature", "geometry": {"type": "Point", "coordinates": [2.3865263164, 48.8988128396]}, "properties": {"city": "PARIS", "station_number": 108, "station_id": "230402", "geo_coordinates": [48.8988128396, 2.3865263164], "address": "3 avenue de la porte de la Villette", "station_name": "Porte de la Villette", "zip_code": "75019"}},{"type": "Feature", "geometry": {"type": "Point", "coordinates": [2.39818453789, 48.8644994969]}, "properties": {"city": "PARIS", "station_number": 109, "station_id": "230403", "geo_coordinates": [48.8644994969, 2.39818453789], "address": "18 avenue du P\u00e8re Lachaise", "address_precision": "Angle place Gambetta", "station_name": "Mairie du 20\u00e8me - Gambetta", "zip_code": "75020"}},{"type": "Feature", "geometry": {"type": "Point", "coordinates": [2.33174353838, 48.876374734]}, "properties": {"city": "PARIS", "station_number": 34, "station_id": "230423", "geo_coordinates": [48.876374734, 2.33174353838], "address": "2 place d'Estienne d'Orves", "station_name": "Trinit\u00e9 - d'Estienne d'Orves", "zip_code": "75009"}},{"type": "Feature", "geometry": {"type": "Point", "coordinates": [2.35312342644, 48.8236335835]}, "properties": {"city": "PARIS", "station_number": 53, "station_id": "230431", "geo_coordinates": [48.8236335835, 2.35312342644], "address": "8 place de l'Abb\u00e9 Georges H\u00e9nocque", "station_name": "Abb\u00e9 Georges H\u00e9nocque", "zip_code": "75013"}},{"type": "Feature", "geometry": {"type": "Point", "coordinates": [2.29749508202, 48.8378506754]}, "properties": {"city": "PARIS", "station_number": 65, "station_id": "230437", "geo_coordinates": [48.8378506754, 2.29749508202], "address": "304 rue de Vaugirard", "address_precision": "Angle rue Ferdinand Fabre", "station_name": "Convention - Vaugirard", "zip_code": "75015"}},{"type": "Feature", "geometry": {"type": "Point", "coordinates": [2.2789234668, 48.836918972]}, "properties": {"city": "PARIS", "station_number": 70, "station_id": "230439", "geo_coordinates": [48.836918972, 2.2789234668], "address": "3 place Balard", "address_precision": "Angle avenue F\u00e9lix Faure", "station_name": "Place Balard", "zip_code": "75015"}},{"type": "Feature", "geometry": {"type": "Point", "coordinates": [2.25752480328, 48.8374684629]}, "properties": {"city": "PARIS", "station_number": 73, "station_id": "230440", "geo_coordinates": [48.8374684629, 2.25752480328], "address": "5 place de la Porte de Saint Cloud", "address_precision": "Angle boulevard Murat", "station_name": "Porte de Saint Cloud", "zip_code": "75016"}},{"type": "Feature", "geometry": {"type": "Point", "coordinates": [2.2726149112, 48.8643106983]}, "properties": {"city": "PARIS", "station_number": 74, "station_id": "230441", "geo_coordinates": [48.8643106983, 2.2726149112], "address": "78 avenue Henri Martin", "station_name": "Henri Martin", "zip_code": "75016"}},{"type": "Feature", "geometry": {"type": "Point", "coordinates": [2.28630691767, 48.8634443329]}, "properties": {"city": "PARIS", "station_number": 81, "station_id": "230444", "geo_coordinates": [48.8634443329, 2.28630691767], "address": "1 avenue d'Eylau", "address_precision": "Angle place du Trocad\u00e9ro", "station_name": "Trocad\u00e9ro", "zip_code": "75016"}},{"type": "Feature", "geometry": {"type": "Point", "coordinates": [2.36003682017, 48.8899790097]}, "properties": {"city": "PARIS", "station_number": 95, "station_id": "230450", "geo_coordinates": [48.8899790097, 2.36003682017], "address": "76 rue Marx Dormoy", "address_precision": "Angle rue de Riquet", "station_name": "Marx Dormoy - Ordener", "zip_code": "75018"}},{"type": "Feature", "geometry": {"type": "Point", "coordinates": [2.39378705621, 48.8891756965]}, "properties": {"city": "PARIS", "station_number": 107, "station_id": "230456", "geo_coordinates": [48.8891756965, 2.39378705621], "address": "221 avenue Jean Jaur\u00e8s", "station_name": "Porte de Pantin", "zip_code": "75019"}},{"type": "Feature", "geometry": {"type": "Point", "coordinates": [2.38344177604, 48.8667897264]}, "properties": {"city": "PARIS", "station_number": 111, "station_id": "230458", "geo_coordinates": [48.8667897264, 2.38344177604], "address": "148 boulevard de M\u00e9nilmontant", "address_precision": "Angle rue de M\u00e9nilmontant", "station_name": "M\u00e9nilmontant - Belleville", "zip_code": "75020"}},{"type": "Feature", "geometry": {"type": "Point", "coordinates": [2.36380934715, 48.8670142444]}, "properties": {"city": "PARIS", "station_number": 39, "station_id": "230461", "geo_coordinates": [48.8670142444, 2.36380934715], "address": "10 place de la R\u00e9publique", "station_name": "R\u00e9publique", "zip_code": "75011"}},{"type": "Feature", "geometry": {"type": "Point", "coordinates": [2.36463144422, 48.8677292547]}, "properties": {"city": "PARIS", "station_number": 120, "station_id": "230475", "geo_coordinates": [48.8677292547, 2.36463144422], "address": "2-4 Rue du Faubourg du Temple", "station_name": "R\u00e9publique Temple", "zip_code": "75010"}}]}